[
  {
    "StationName": "新屋",
    "StationID": "467050",
    "Latitude": 25.006725,
    "Longitude": 121.047492,
    "Altitude_m": 20.6,
    "City": "桃園市",
    "Address": "新屋區東興路二段946號",
    "Notes": "座標及高度於2013/10/09更正。2020/01/01至2020/02/15因施工部分觀測資料缺值。",
    "DateEstablished": "2013-07-01"
  },
  {
    "StationName": "桃園農改場",
    "StationID": "72C440",
    "Latitude": 24.950944,
    "Longitude": 121.030583,
    "Altitude_m": 70.0,
    "City": "桃園市",
    "Address": "新屋區後庄里16號",
    "Notes": "",
    "DateEstablished": "1985-02-01"
  },
  {
    "StationName": "茶改場",
    "StationID": "82C160",
    "Latitude": 24.908472,
    "Longitude": 121.185333,
    "Altitude_m": 195.0,
    "City": "桃園市",
    "Address": "楊梅區金龍里中興路324號",
    "Notes": "",
    "DateEstablished": "1909-01-01"
  },
  {
    "StationName": "農工中心",
    "StationID": "A2C560",
    "Latitude": 24.985917,
    "Longitude": 121.239833,
    "Altitude_m": 121.0,
    "City": "桃園市",
    "Address": "中壢區中園路196之1號",
    "Notes": "",
    "DateEstablished": "2002-06-01"
  },
  {
    "StationName": "復興",
    "StationID": "C0C460",
    "Latitude": 24.820208,
    "Longitude": 121.3523281,
    "Altitude_m": 482.0,
    "City": "桃園市",
    "Address": "復興區澤仁里中正路248號(介壽國民中學校園內)",
    "Notes": "原(C1C460)站因擴充為氣象站，於2007/10/1升級為(C0C460)站。",
    "DateEstablished": "2007-10-01"
  },
  {
    "StationName": "桃園",
    "StationID": "C0C480",
    "Latitude": 24.992425,
    "Longitude": 121.323172,
    "Altitude_m": 105.0,
    "City": "桃園市",
    "Address": "桃園區成功路二段144號(桃園高級農工職業學校校園內)",
    "Notes": "原(C1C480)站因擴充為氣象站，於2008/1/1升級為(C0C480)站。",
    "DateEstablished": "2008-01-01"
  },
  {
    "StationName": "八德",
    "StationID": "C0C490",
    "Latitude": 24.928708,
    "Longitude": 121.283289,
    "Altitude_m": 157.0,
    "City": "桃園市",
    "Address": "八德區興仁里中山路94號(八德國民小學校園內)",
    "Notes": "原(C1C490)站因擴充為氣象站，於2011/12/1升級為(C0C490)站。",
    "DateEstablished": "2011-12-01"
  },
  {
    "StationName": "蘆竹",
    "StationID": "C0C620",
    "Latitude": 25.084275,
    "Longitude": 121.265767,
    "Altitude_m": 19.0,
    "City": "桃園市",
    "Address": "蘆竹區坑口里14鄰旁",
    "Notes": "原(C1C620)站因擴充為氣象站，於2011/12/1升級為(C0C620)站。",
    "DateEstablished": "2011-12-01"
  },
  {
    "StationName": "大溪",
    "StationID": "C0C630",
    "Latitude": 24.882853,
    "Longitude": 121.265547,
    "Altitude_m": 209.0,
    "City": "桃園市",
    "Address": "大溪區員林路2段450號(員樹林國小校園內)",
    "Notes": "",
    "DateEstablished": "2007-10-11"
  },
  {
    "StationName": "平鎮",
    "StationID": "C0C650",
    "Latitude": 24.897503,
    "Longitude": 121.214636,
    "Altitude_m": 208.0,
    "City": "桃園市",
    "Address": "平鎮區中豐路山頂段375巷45號(山豐國民小學校園內)",
    "Notes": "",
    "DateEstablished": "2007-10-11"
  },
  {
    "StationName": "楊梅",
    "StationID": "C0C660",
    "Latitude": 24.912375,
    "Longitude": 121.143047,
    "Altitude_m": 176.0,
    "City": "桃園市",
    "Address": "楊梅區金華街100號(楊心國小)",
    "Notes": "",
    "DateEstablished": "2013-06-30"
  },
  {
    "StationName": "龍潭",
    "StationID": "C0C670",
    "Latitude": 24.870056,
    "Longitude": 121.221389,
    "Altitude_m": 250.0,
    "City": "桃園市",
    "Address": "龍潭區中興路726號（龍潭消防分隊）",
    "Notes": "",
    "DateEstablished": "2014-03-17"
  },
  {
    "StationName": "龜山",
    "StationID": "C0C680",
    "Latitude": 25.028458,
    "Longitude": 121.386561,
    "Altitude_m": 228.0,
    "City": "桃園市",
    "Address": "龜山區文化一路250號(國立體育大學田徑場)",
    "Notes": "",
    "DateEstablished": "2017-03-28"
  },
  {
    "StationName": "國一五楊N44K",
    "StationID": "C0C690",
    "Latitude": 25.063861,
    "Longitude": 121.340164,
    "Altitude_m": 242.0,
    "City": "桃園市",
    "Address": "龜山區國一高速公路五楊北上44K處",
    "Notes": "",
    "DateEstablished": ""
  },
  {
    "StationName": "中壢",
    "StationID": "C0C700",
    "Latitude": 24.977661,
    "Longitude": 121.256375,
    "Altitude_m": 151.0,
    "City": "桃園市",
    "Address": "中壢區成章四街120號(內壢高中樓頂)",
    "Notes": "",
    "DateEstablished": "2017-12-27"
  },
  {
    "StationName": "大溪永福",
    "StationID": "C0C710",
    "Latitude": 24.892936,
    "Longitude": 121.324975,
    "Altitude_m": 143.0,
    "City": "桃園市",
    "Address": "大溪區信義路1165號（永福國小）",
    "Notes": "",
    "DateEstablished": "2018-12-26"
  },
  {
    "StationName": "竹圍",
    "StationID": "C0C720",
    "Latitude": 25.112694,
    "Longitude": 121.239825,
    "Altitude_m": 21.0,
    "City": "桃園市",
    "Address": "大園區沙崙段沙崙小號00719-000建號(竹圍第一機動巡邏隊樓頂)",
    "Notes": "",
    "DateEstablished": "2022-03-09"
  },
  {
    "StationName": "中大臨海站",
    "StationID": "C0C730",
    "Latitude": 24.966128,
    "Longitude": 121.008583,
    "Altitude_m": 5.0,
    "City": "桃園市",
    "Address": "新屋區蚵殼港段深圳小段52-41號土地(中央大學臨海工作站)",
    "Notes": "",
    "DateEstablished": "2022-03-09"
  },
  {
    "StationName": "觀音工業區",
    "StationID": "C0C740",
    "Latitude": 25.064767,
    "Longitude": 121.114858,
    "Altitude_m": 5.3,
    "City": "桃園市",
    "Address": "觀音區經建七路5號(觀音工業區汙水處理廠迴流汙泥站機房樓頂)",
    "Notes": "",
    "DateEstablished": "2022-03-09"
  },
  {
    "StationName": "新興坑尾",
    "StationID": "C0C750",
    "Latitude": 25.006066,
    "Longitude": 121.097072,
    "Altitude_m": 72.0,
    "City": "桃園市",
    "Address": "觀音區文化路石橋段453號",
    "Notes": "",
    "DateEstablished": "2022-12-26"
  },
  {
    "StationName": "東眼山",
    "StationID": "C0C790",
    "Latitude": 24.8284,
    "Longitude": 121.40888,
    "Altitude_m": 858.0,
    "City": "桃園市",
    "Address": "復興區東眼山段93地號",
    "Notes": "",
    "DateEstablished": "2025-03-27"
  },
  {
    "StationName": "四稜",
    "StationID": "C0C800",
    "Latitude": 24.64733,
    "Longitude": 121.4293,
    "Altitude_m": 1167.0,
    "City": "桃園市",
    "Address": "復興區四稜段6地號",
    "Notes": "",
    "DateEstablished": "2025-03-27"
  },
  {
    "StationName": "中央大學",
    "StationID": "C2C410",
    "Latitude": 24.967652,
    "Longitude": 121.185165,
    "Altitude_m": 129.0,
    "City": "桃園市",
    "Address": "中壢區中大路300號",
    "Notes": "原合作站(A0C410)，於2025/02/28完成儀器汰換，轉為農業站(C2C410)。",
    "DateEstablished": "2025-02-28"
  },
  {
    "StationName": "觀音",
    "StationID": "C2C590",
    "Latitude": 25.027072,
    "Longitude": 121.153317,
    "Altitude_m": 72.0,
    "City": "桃園市",
    "Address": "觀音區廣福里10-42號(逸福農場)",
    "Notes": "原氣象站(C0C590)於2025/11/28升級為農業站(C2C590)。",
    "DateEstablished": "2025-10-17"
  },
  {
    "StationName": "國一S072K",
    "StationID": "CAC010",
    "Latitude": 24.89583,
    "Longitude": 121.1342,
    "Altitude_m": 214.0,
    "City": "桃園市",
    "Address": "楊梅區國道1號南向72.68K",
    "Notes": "",
    "DateEstablished": ""
  },
  {
    "StationName": "國二E009K",
    "StationID": "CAC020",
    "Latitude": 25.018244,
    "Longitude": 121.273697,
    "Altitude_m": 109.0,
    "City": "桃園市",
    "Address": "桃園區國道2號東向9.18K",
    "Notes": "",
    "DateEstablished": ""
  },
  {
    "StationName": "國三N063K",
    "StationID": "CAC030",
    "Latitude": 24.889514,
    "Longitude": 121.2636,
    "Altitude_m": 203.0,
    "City": "桃園市",
    "Address": "大溪區國道3號北向63K",
    "Notes": "",
    "DateEstablished": ""
  },
  {
    "StationName": "拉拉山",
    "StationID": "CAC040",
    "Latitude": 24.699317,
    "Longitude": 121.427133,
    "Altitude_m": 1684.0,
    "City": "桃園市",
    "Address": "復興區塔曼山登山口前大型水塔附近",
    "Notes": "",
    "DateEstablished": ""
  },
  {
    "StationName": "西濱S023K",
    "StationID": "CAC050",
    "Latitude": 25.11649,
    "Longitude": 121.27551,
    "Altitude_m": 23.0,
    "City": "桃園市",
    "Address": "蘆竹區西濱快道南向23K",
    "Notes": "",
    "DateEstablished": ""
  },
  {
    "StationName": "西濱S032K",
    "StationID": "CAC060",
    "Latitude": 25.091966,
    "Longitude": 121.192505,
    "Altitude_m": 21.0,
    "City": "桃園市",
    "Address": "大園區西濱快道南向32.2K",
    "Notes": "",
    "DateEstablished": ""
  },
  {
    "StationName": "國一高架N063K",
    "StationID": "CAC760",
    "Latitude": 24.950281,
    "Longitude": 121.196314,
    "Altitude_m": 170.0,
    "City": "桃園市",
    "Address": "平鎮區國道1號高架北向63.26K",
    "Notes": "",
    "DateEstablished": ""
  },
  {
    "StationName": "國三N072K",
    "StationID": "CAC770",
    "Latitude": 24.836391,
    "Longitude": 121.199371,
    "Altitude_m": 313.0,
    "City": "桃園市",
    "Address": "",
    "Notes": "",
    "DateEstablished": ""
  },
  {
    "StationName": "八德合作社",
    "StationID": "V2C250",
    "Latitude": 24.93775,
    "Longitude": 121.266389,
    "Altitude_m": 150.0,
    "City": "桃園市",
    "Address": "八德區魚池街",
    "Notes": "",
    "DateEstablished": ""
  },
  {
    "StationName": "八德蔬果",
    "StationID": "V2C260",
    "Latitude": 24.978508,
    "Longitude": 121.281819,
    "Altitude_m": 103.0,
    "City": "桃園市",
    "Address": "桃園市八德區茄苳路197號",
    "Notes": "",
    "DateEstablished": ""
  }
]