[
  {
    "StationName": "新屋",
    "StationID": "467050",
    "Latitude": 25.0067,
    "Longitude": 121.0475,
    "Altitude_m": 20.6,
    "City": "桃園市",
    "Address": "新屋區東興路二段946號",
    "Notes": "座標及高度於2013/10/09更正。2020/01/01至2020/02/15因施工部分觀測資料缺值。",
    "DateEstablished": "2013-07-01"
  },
  {
    "StationName": "桃園農改場",
    "StationID": "72C440",
    "Latitude": 24.9509,
    "Longitude": 121.0306,
    "Altitude_m": 70,
    "City": "桃園市",
    "Address": "新屋區後庄里16號",
    "Notes": "",
    "DateEstablished": "1985-02-01"
  },
  {
    "StationName": "茶改場",
    "StationID": "82C160",
    "Latitude": 24.9085,
    "Longitude": 121.1853,
    "Altitude_m": 195,
    "City": "桃園市",
    "Address": "楊梅區金龍里中興路324號",
    "Notes": "",
    "DateEstablished": "1909-01-01"
  },
  {
    "StationName": "農工中心",
    "StationID": "A2C560",
    "Latitude": 24.9859,
    "Longitude": 121.2398,
    "Altitude_m": 121,
    "City": "桃園市",
    "Address": "中壢區中園路196之1號",
    "Notes": "",
    "DateEstablished": "2002-06-01"
  },
  {
    "StationName": "中央大學",
    "StationID": "C2C410",
    "Latitude": 24.9677,
    "Longitude": 121.1852,
    "Altitude_m": 129,
    "City": "桃園市",
    "Address": "中壢區中大路300號",
    "Notes": "原合作站(A0C410)，於2025/02/28完成儀器汰換，轉為農業站(C2C410)。",
    "DateEstablished": "2025-02-28"
  },
  {
    "StationName": "觀音",
    "StationID": "C2C590",
    "Latitude": 25.0271,
    "Longitude": 121.1533,
    "Altitude_m": 72,
    "City": "桃園市",
    "Address": "觀音區廣福里10-42號(逸福農場)",
    "Notes": "原氣象站(C0C590)於2025/11/28升級為農業站(C2C590)。",
    "DateEstablished": "2025-10-17"
  },
  {
    "StationName": "復興",
    "StationID": "C0C460",
    "Latitude": 24.8202,
    "Longitude": 121.3523,
    "Altitude_m": 482,
    "City": "桃園市",
    "Address": "復興區澤仁里中正路248號(介壽國民中學校園內)",
    "Notes": "原(C1C460)站因擴充為氣象站，於2007/10/1升級為(C0C460)站。",
    "DateEstablished": "2007-10-01"
  },
  {
    "StationName": "桃園",
    "StationID": "C0C480",
    "Latitude": 24.9924,
    "Longitude": 121.3232,
    "Altitude_m": 105,
    "City": "桃園市",
    "Address": "桃園區成功路二段144號(桃園高級農工職業學校校園內)",
    "Notes": "原(C1C480)站因擴充為氣象站，於2008/1/1升級為(C0C480)站。",
    "DateEstablished": "2008-01-01"
  },
  {
    "StationName": "八德",
    "StationID": "C0C490",
    "Latitude": 24.9287,
    "Longitude": 121.2833,
    "Altitude_m": 157,
    "City": "桃園市",
    "Address": "八德區興仁里中山路94號(八德國民小學校園內)",
    "Notes": "原(C1C490)站因擴充為氣象站，於2011/12/1升級為(C0C490)站。",
    "DateEstablished": "2011-12-01"
  },
  {
    "StationName": "蘆竹",
    "StationID": "C0C620",
    "Latitude": 25.0843,
    "Longitude": 121.2658,
    "Altitude_m": 19,
    "City": "桃園市",
    "Address": "蘆竹區坑口里14鄰旁",
    "Notes": "原(C1C620)站因擴充為氣象站，於2011/12/1升級為(C0C620)站。",
    "DateEstablished": "2011-12-01"
  },
  {
    "StationName": "大溪",
    "StationID": "C0C630",
    "Latitude": 24.8829,
    "Longitude": 121.2655,
    "Altitude_m": 209,
    "City": "桃園市",
    "Address": "大溪區員林路2段450號(員樹林國小校園內)",
    "Notes": "",
    "DateEstablished": "2007-10-11"
  },
  {
    "StationName": "平鎮",
    "StationID": "C0C650",
    "Latitude": 24.8975,
    "Longitude": 121.2146,
    "Altitude_m": 208,
    "City": "桃園市",
    "Address": "平鎮區中豐路山頂段375巷45號(山豐國民小學校園內)",
    "Notes": "",
    "DateEstablished": "2007-10-11"
  },
  {
    "StationName": "楊梅",
    "StationID": "C0C660",
    "Latitude": 24.9124,
    "Longitude": 121.1430,
    "Altitude_m": 176,
    "City": "桃園市",
    "Address": "楊梅區金華街100號(楊心國小)",
    "Notes": "",
    "DateEstablished": "2013-06-30"
  },
  {
    "StationName": "龍潭",
    "StationID": "C0C670",
    "Latitude": 24.8701,
    "Longitude": 121.2214,
    "Altitude_m": 250,
    "City": "桃園市",
    "Address": "龍潭區中興路726號（龍潭消防分隊）",
    "Notes": "",
    "DateEstablished": "2014-03-17"
  },
  {
    "StationName": "龜山",
    "StationID": "C0C680",
    "Latitude": 25.0285,
    "Longitude": 121.3866,
    "Altitude_m": 228,
    "City": "桃園市",
    "Address": "龜山區文化一路250號(國立體育大學田徑場)",
    "Notes": "",
    "DateEstablished": "2017-03-28"
  },
  {
    "StationName": "中壢",
    "StationID": "C0C700",
    "Latitude": 24.9777,
    "Longitude": 121.2564,
    "Altitude_m": 151,
    "City": "桃園市",
    "Address": "中壢區成章四街120號(內壢高中樓頂)",
    "Notes": "",
    "DateEstablished": "2017-12-27"
  },
  {
    "StationName": "大溪永福",
    "StationID": "C0C710",
    "Latitude": 24.8929,
    "Longitude": 121.3250,
    "Altitude_m": 143,
    "City": "桃園市",
    "Address": "大溪區信義路1165號（永福國小）",
    "Notes": "",
    "DateEstablished": "2018-12-26"
  },
  {
    "StationName": "竹圍",
    "StationID": "C0C720",
    "Latitude": 25.1127,
    "Longitude": 121.2398,
    "Altitude_m": 21,
    "City": "桃園市",
    "Address": "大園區沙崙段沙崙小號00719-000建號(竹圍第一機動巡邏隊樓頂)",
    "Notes": "",
    "DateEstablished": "2022-03-09"
  },
  {
    "StationName": "中大臨海站",
    "StationID": "C0C730",
    "Latitude": 24.9661,
    "Longitude": 121.0086,
    "Altitude_m": 5,
    "City": "桃園市",
    "Address": "新屋區蚵殼港段深圳小段52-41號土地(中央大學臨海工作站)",
    "Notes": "",
    "DateEstablished": "2022-03-09"
  },
  {
    "StationName": "觀音工業區",
    "StationID": "C0C740",
    "Latitude": 25.0648,
    "Longitude": 121.1149,
    "Altitude_m": 5.3,
    "City": "桃園市",
    "Address": "觀音區經建七路5號(觀音工業區汙水處理廠迴流汙泥站機房樓頂)",
    "Notes": "",
    "DateEstablished": "2022-03-09"
  },
  {
    "StationName": "新興坑尾",
    "StationID": "C0C750",
    "Latitude": 25.0061,
    "Longitude": 121.0971,
    "Altitude_m": 72,
    "City": "桃園市",
    "Address": "觀音區文化路石橋段453號",
    "Notes": "",
    "DateEstablished": "2022-12-26"
  },
  {
    "StationName": "東眼山",
    "StationID": "C0C790",
    "Latitude": 24.8284,
    "Longitude": 121.4089,
    "Altitude_m": 858,
    "City": "桃園市",
    "Address": "復興區東眼山段93地號",
    "Notes": "",
    "DateEstablished": "2025-03-27"
  },
  {
    "StationName": "四稜",
    "StationID": "C0C800",
    "Latitude": 24.6473,
    "Longitude": 121.4293,
    "Altitude_m": 1167,
    "City": "桃園市",
    "Address": "復興區四稜段6地號",
    "Notes": "",
    "DateEstablished": "2025-03-27"
  },
  {
    "StationName": "水尾",
    "StationID": "C1C510",
    "Latitude": 24.9401,
    "Longitude": 121.0872,
    "Altitude_m": 106,
    "City": "桃園市",
    "Address": "楊梅區豐野里1鄰151號(富崗水尾工作站內)",
    "Notes": "",
    "DateEstablished": "1987-06-01"
  }
]
